entity_id,name,country,capacity_mmt,lat,lon
PRT_BASRA,Basra Oil Terminal,Iraq,150.0,29.68,48.80
PRT_NOVOROS,Novorossiysk,Russia,80.0,44.72,37.77
PRT_RAS,Ras Tanura,Saudi Arabia,250.0,26.63,50.17
PRT_FUJ,Fujairah,UAE,120.0,25.12,56.33
PRT_HOUSTON,Houston,United States,100.0,29.76,-95.36
